# This LAS file was exported from HorizontalLog 8.5.0, a product of WellSight Systems Inc..
# It is designed to pass the LAS Certify utility provided by the Canadian Well Logging Society.
# WellSight Systems does not warrant that this file will be readable by any other program, system, or process.
# If you encounter problems using this file, first contact the user who exported it, 
# and reference the appropriate LAS specification available at www.CWLS.org.
~VERSION INFORMATION
VERS      .           2.0                            : CWLS Log ASCII Standard Version
WRAP      .           NO                             : One Line per Depth Step
DLM       .           SPACE                          : Delimiter between data columns - one or more spaces
~WELL INFORMATION
STRT      .m          800                            : First Depth
STOP      .m          2728                           : Last Depth
STEP      .m          0.2                            : Depth Increment
NULL      .           -999.25                        : NULL Value
COMP      .           Spur Petroleum Ltd.            : Well Operator
WELL      .           SPL 13-05 HZ Nipisi 1-18-77-7 Leg #3 : Well Name
FLD       .                                          : Field
LOC       .           Surface: 13-05-77-07W5         : Location
SRVC      .           RPS Energy                     : Service Company
DATE      .           xx/06/2022 @ xx:45hrs          : Completion Date
CTRY      .                                          : Country
PROV      .                                          : Province       (required if CTRY = CA)
UWI       .           100/01-18-077-07W5/03          : Unique Well ID (required if CTRY = CA)
LIC       .           0503696                        : License        (required if CTRY = CA)
STAT      .                                          : State          (required if CTRY = US)
CNTY      .                                          : County         (required if CTRY = US)
API       .                                          : API Number     (required if CTRY = US)
# Surface Coords: 339.2m South and 161.2m East Boundary Section 5
LATI      .DEG                                       : Latitude  - see Surface Coords comment above
LONG      .DEG                                       : Longitude - see Surface Coords comment above
GDAT      .                                          : Geodetic Datum
EKB       .m          715                            : K.B. Elevation
EGL       .m          710.6                          : Ground Level Elevation
~PARAMETER
# There are no parameters
~CURVE
Depth     .m          001                            : Depth channel
ROP       .min/m                                     : 
Gas       .units                                     : 
Gamma     .API                                       : 
#Depth               ROP             Gas           Gamma
~ASCII
# ...
1815.200            0.20         2008.20           71.41
1815.400            0.20         1943.40           70.49
1815.600            0.20         1888.60           69.99
1815.800            0.20         1843.80           70.25
1816.000            0.20         1799.00           70.59
1816.200            0.20         1753.80           70.70
1816.400            0.20         1708.60           69.76
1816.600            0.20         1674.20           67.49
1816.800            0.20         1650.60           67.00
1817.000            0.20         1627.00           66.57
1817.200            0.20         1595.80           66.39
1817.400            0.20         1564.60           67.21
1817.600            0.20         1544.40           68.23
1817.800            0.20         1535.20           69.98
1818.000            0.20         1526.00           69.98
1818.200            1.24         1781.60           69.98
1818.400            2.28         2037.20           69.98
1818.600            2.40         2167.40           69.76
1818.800            1.60         2172.20           68.44
1819.000            0.80         2177.00           66.93
1819.200            0.68         2182.60           66.37
1819.400            0.56         2188.20           66.37
1819.600            0.48         2197.20           66.37
1819.800            0.44         2209.60           67.15
1820.000            0.40         2222.00           67.91
1820.200            0.36         2234.80           68.13
1820.400            0.32         2247.60           68.35
1820.600            0.30         2262.60           68.49
1820.800            0.30         2279.80           67.09
1821.000            0.30         2297.00           66.83
1821.200            0.26         2302.20           66.55
1821.400            0.22         2307.40           66.47
1821.600            0.20         2310.20           67.14
1821.800            0.20         2310.60           67.51
1822.000            0.20         2311.00           67.96
1822.200            0.20         2301.00           68.35
1822.400            0.20         2291.00           68.53
1822.600            0.20         2278.40           67.99
1822.800            0.20         2263.20           68.16
1823.000            0.20         2248.00           69.63
1823.200            0.20         2225.60           70.70
1823.400            0.20         2203.20           70.70
1823.600            0.20         2186.60           70.70
1823.800            0.20         2175.80           70.65
1824.000            0.20         2165.00           69.65
1824.200            0.20         2140.60           69.40
1824.400            0.20         2116.20           70.43
1824.600            0.20         2088.20           70.70
1824.800            0.20         2056.60           70.70
1825.000            0.20         2025.00           70.70
1825.200            0.20         1485.80           70.70
1825.400            0.20          946.60           70.70
1825.600            0.20          666.00           70.66
1825.800            0.20          644.00           70.32
1826.000            0.20          622.00           70.00
1826.200            0.20          588.00           69.98
1826.400            0.20          554.00           69.92
1826.600            0.20          528.20           69.63
1826.800            0.20          510.60           69.21
1827.000            0.20          493.00           68.79
1827.200            0.20          463.40           68.71
1827.400            0.20          433.80           69.37
1827.600            0.20          413.80           69.62
1827.800            0.20          403.40           69.87
1828.000            0.20          393.00           69.40
1828.200            0.20          385.00           68.27
1828.400            0.20          377.00           66.51
1828.600            0.20          373.00           65.13
1828.800            0.20          373.00           64.93
1829.000            0.20          373.00           64.93
1829.200            0.20          374.20           66.01
1829.400            0.20          375.40           67.75
1829.600            0.20          381.20           70.67
1829.800            0.20          391.60           73.47
1830.000            0.20          402.00           72.52
1830.200            0.20          420.00           69.69
1830.400            0.20          438.00           67.83
1830.600            0.20          462.40           69.34
1830.800            0.20          493.20           72.46
1831.000            0.20          524.00           73.57
1831.200            0.20          547.60           73.35
1831.400            0.20          571.20           72.93
1831.600            0.28          846.00           72.47
1831.800            0.44         1372.00           72.05
1832.000            0.60         1898.00           70.70
1832.200            0.68         1927.20           70.70
1832.400            0.76         1956.40           70.70
1832.600            0.74         1983.40           70.76
1832.800            0.62         2008.20           71.41
1833.000            0.50         2033.00           72.30
1833.200            0.46         2040.20           72.91
1833.400            0.42         2047.40           73.62
1833.600            0.38         2052.00           73.90
1833.800            0.34         2054.00           74.20
1834.000            0.30         2056.00           74.59
1834.200            0.30         2055.60           74.90
1834.400            0.30         2055.20           74.09
1834.600            0.28         2054.20           73.20
1834.800            0.24         2052.60           72.85
1835.000            0.20         2051.00           72.45
1835.200            0.20         2051.80           70.85
1835.400            0.20         2052.60           67.81
1835.600            0.20         2053.20           67.81
1835.800            0.20         2053.60           67.81
1836.000            0.20         2054.00           67.81
1836.200            0.20         2051.20           69.21
1836.400            0.20         2048.40           70.05
1836.600            0.20         2044.60           70.56
1836.800            0.20         2039.80           70.88
1837.000            0.20         2035.00           71.41
1837.200            0.20         1459.80           70.44
1837.400            0.20          884.60           68.96
1837.600            0.20          587.40           68.92
1837.800            0.20          568.20           71.82
1838.000            0.20          549.00           72.35
1838.200            0.20          515.80           72.84
1838.400            0.20          482.60           72.30
1838.600            0.20          458.40           71.56
1838.800            0.20          443.20           70.05
1839.000            0.20          428.00           68.51
1839.200            0.20          404.80           67.81
1839.400            0.20          381.60           67.41
1839.600            0.20          365.40           67.06
1839.800            0.20          356.20           65.95
1840.000            0.20          347.00           65.76
1840.200            0.20          341.00           66.38
1840.400            0.20          335.00           67.06
1840.600            0.20          331.20           69.32
1840.800            0.20          329.60           71.18
1841.000            0.20          328.00           72.81
1841.200            0.20          327.20           73.58
1841.400            0.20          326.40           73.58
1841.600            0.20          332.20           73.58
1841.800            0.20          344.60           72.92
1842.000            0.20          357.00           71.72
1842.200            0.20          373.00           67.70
1842.400            0.20          389.00           66.90
1842.600            0.20          421.40           66.41
1842.800            0.20          470.20           66.48
1843.000            0.20          519.00           66.84
1843.200            0.20          565.80           67.40
